[
  { "lat": 19.076, "lng": 72.8777, "intensity": 95, "city": "Mumbai", "reports": 1247 },
  { "lat": 28.6139, "lng": 77.209, "intensity": 98, "city": "Delhi", "reports": 1589 },
  { "lat": 12.9716, "lng": 77.5946, "intensity": 82, "city": "Bangalore", "reports": 876 },
  { "lat": 13.0827, "lng": 80.2707, "intensity": 71, "city": "Chennai", "reports": 654 },
  { "lat": 17.385, "lng": 78.4867, "intensity": 68, "city": "Hyderabad", "reports": 543 },
  { "lat": 22.5726, "lng": 88.3639, "intensity": 75, "city": "Kolkata", "reports": 721 },
  { "lat": 18.5204, "lng": 73.8567, "intensity": 79, "city": "Pune", "reports": 612 },
  { "lat": 23.0225, "lng": 72.5714, "intensity": 58, "city": "Ahmedabad", "reports": 432 },
  { "lat": 26.9124, "lng": 75.7873, "intensity": 52, "city": "Jaipur", "reports": 321 },
  { "lat": 25.5941, "lng": 85.1376, "intensity": 45, "city": "Patna", "reports": 287 },
  { "lat": 21.1458, "lng": 79.0882, "intensity": 41, "city": "Nagpur", "reports": 198 },
  { "lat": 11.0168, "lng": 76.9558, "intensity": 38, "city": "Coimbatore", "reports": 156 }
]
